id,city,country,latitude,longitude,temperature,humidity,cloudiness
262462,Saint George,GR,39.45,22.34,13,82,40
1213855,Sibolga,ID,1.74,98.78,28.45,68,100
691693,Druzhba,UA,49.36,25.65,12.22,77,100
6149374,Slave Lake,CA,55.28,-114.77,3,47,1
3896218,Castro,CL,-42.48,-73.76,10,100,90
3833367,Ushuaia,AR,-54.81,-68.31,4,64,20
2075265,Busselton,AU,-33.64,115.35,19.41,63,98
964432,Port Alfred,ZA,-33.59,26.89,14.44,88,49
7671223,Kloulklubed,PW,7.04,134.26,30,74,75
3194494,Niksic,ME,42.77,18.95,13.67,93,90
1015776,Bredasdorp,ZA,-34.53,20.04,12.06,81,100
344979,Lebu,ET,8.96,38.73,13.35,51,47
3393471,Oriximina,BR,-1.77,-55.87,26.15,81,60
2110227,Butaritari,KI,3.07,172.79,28.65,80,100
3423146,Ilulissat,GL,69.22,-51.1,12,37,77
5106834,Albany,US,42.65,-73.75,13.47,100,90
1273574,Vaini,IN,15.34,74.49,22.02,88,1
2123814,Leningradskiy,RU,69.38,178.42,-5.65,85,98
3453439,Ponta do Sol,BR,-20.63,-46,18.35,96,100
2980080,Saint-Francois,FR,46.42,3.91,2.13,93,20
3466165,Cidreira,BR,-30.17,-50.22,23.75,86,100
2293538,Abidjan,CI,5.32,-4.02,27,88,40
3369157,Cape Town,ZA,-33.93,18.42,12.44,81,0
3366880,Hermanus,ZA,-34.42,19.24,13.28,76,100
2163355,Hobart,AU,-42.88,147.33,13.6,58,75
3686513,Cordoba,CO,5.59,-73.79,17.05,82,98
6185377,Yellowknife,CA,62.45,-114.38,0.05,78,75
5924351,Clyde River,CA,70.47,-68.59,-5,92,90
3863379,Mar del Plata,AR,-46.43,-67.52,7.95,62,0
3378644,Georgetown,GY,6.8,-58.16,24,100,40
2399870,Lastoursville,GA,-0.81,12.73,22.85,96,100
4030556,Rikitea,PF,-23.12,-134.97,25.45,85,1
3421765,Nanortalik,GL,60.14,-45.24,2.75,87,100
2191562,Dunedin,NZ,-45.87,170.5,12.78,86,91
4020109,Atuona,PF,-9.8,-139.03,28.85,74,28
217834,Bukama,CD,-9.2,25.85,19.95,80,29
588365,Vao,EE,59.1,26.19,0.75,91,63
3466980,Caravelas,BR,-17.73,-39.27,25.05,77,64
2126123,Chokurdakh,RU,70.62,147.9,-5.75,94,1
3016194,Durban,FR,43.54,0.58,2.31,96,0
1167648,Qadirpur Ran,PK,30.29,71.67,27,42,0
3981460,Coahuayana,MX,18.62,-100.35,30.95,21,27
2267254,Lagoa,PT,37.14,-8.45,13.64,93,20
866062,Iskateley,RU,67.68,53.15,-0.05,86,95
4732862,Nome,US,30.04,-94.42,21.91,83,1
4267710,Sitka,US,37.17,-99.65,15.56,83,82
962367,Richards Bay,ZA,-28.77,32.06,22.35,83,100
5640350,Billings,US,45.79,-108.5,12.37,44,75
5847486,Kailua,US,21.39,-157.74,21.45,88,75
5129780,Olean,US,42.08,-78.43,10.74,100,90
3056418,Adand,HU,46.86,18.16,9.45,93,100
3833859,Barrow,AR,-38.31,-60.23,15.35,80,100
2017155,Saskylakh,RU,71.97,114.09,-8.65,92,100
1525988,Ayagoz,KZ,47.96,80.43,10.15,38,0
2361177,Djibo,BF,14.1,-1.63,31.15,39,82
4031637,Lavrentiya,RU,65.58,-170.99,-2.05,97,100
5861897,Fairbanks,US,64.84,-147.72,6.81,42,90
2337542,Naze,NG,5.43,7.07,24.55,96,89
2175403,Bluff,AU,-23.58,149.07,24.05,27,0
2065594,Mount Isa,AU,-20.73,139.49,24,29,0
934322,Mahebourg,MU,-20.41,57.7,23.37,94,40
778707,Mehamn,NO,71.03,27.85,-1.45,87,100
1853140,Sakata,JP,38.92,139.93,19.79,52,0
5850554,Makakilo City,US,21.35,-158.09,21.46,88,75
2012530,Zhigansk,RU,66.77,123.37,1.05,96,100
2654970,Brae,GB,60.4,-1.35,6,75,100
3407010,Assare,BR,-6.87,-39.88,20.25,71,2
1805844,Jieshou,CN,33.26,115.35,29.25,34,100
2274895,Monrovia,LR,6.33,-10.8,24,94,40
3874787,Punta Arenas,CL,-53.16,-70.91,-1,92,0
4036284,Alofi,NU,-19.06,-169.92,24,94,100
235574,Kem,UG,2.68,33.77,20.45,88,100
3137469,Sorland,NO,67.67,12.69,2.85,55,48
1706599,Liboran,PH,8.35,124.65,30,69,31
6201424,Mataura,NZ,-46.19,168.86,11.67,95,99
3948642,Matara,PE,-13.74,-72.9,1.15,93,2
6089245,Norman Wells,CA,65.28,-126.83,2,43,75
1651810,Airai,TL,-8.93,125.41,31.35,49,2
2648579,Glasgow,GB,55.86,-4.24,3.66,86,75
2155415,New Norfolk,AU,-42.78,147.06,13.59,58,75
471160,Voznesenye,RU,61.02,35.48,5.25,77,95
2037078,Hailar,CN,49.2,119.7,6.75,28,0
5880568,Bethel,US,60.79,-161.76,7.74,52,90
108410,Riyadh,SA,24.63,46.72,26,31,0
2063036,Port Lincoln,AU,-34.72,135.86,16.05,59,0
4231997,Avera,US,33.19,-82.53,21.03,100,90
5848280,Kapaa,US,22.08,-159.32,23.8,57,40
1512019,Aksarka,RU,66.56,67.8,1.25,84,0
5937073,Deep River,CA,46.1,-77.49,6.35,61,1
2112802,Hasaki,JP,35.73,140.83,23.78,60,75
5606187,Saint Anthony,US,43.97,-111.68,15.48,20,1
6170031,Tuktoyaktuk,CA,69.44,-133.03,-6,79,40
1805270,Jishou,CN,28.26,109.7,16.35,95,100
2409914,Bonthe,SL,7.53,-12.5,27.75,75,100
5855927,Hilo,US,19.71,-155.08,25.2,65,75
3448903,Sao Joao da Barra,BR,-21.64,-41.05,21.05,95,95
2209055,Waddan,LY,29.16,16.14,21.35,50,45
3471451,Arraial do Cabo,BR,-22.97,-42.02,25,83,40
3424607,Tasiilaq,GL,65.61,-37.64,5,80,87
8142546,Lasem,ID,-6.99,112.52,30,70,20
6165406,Thompson,CA,55.74,-97.86,-1,74,90
3026644,Souillac,FR,45.6,-0.6,1.75,80,0
2094342,Kavieng,PG,-2.57,150.8,28.45,79,100
1490256,Talnakh,RU,69.49,88.39,-1,86,75
3402920,Careiro da Varzea,BR,-3.2,-59.81,25.49,94,0
551487,Kazan,RU,55.78,49.12,12,71,0
5098745,Hackettstown,US,40.85,-74.83,15.31,87,90
2028462,Ulaanbaatar,MN,47.92,106.92,6,24,0
921889,Fomboni,KM,-12.28,43.74,29.15,73,22
679788,Damienesti,RO,46.73,26.98,11.33,93,85
2068110,Kununurra,AU,-15.77,128.74,32,25,22
1052944,Angoche,MZ,-16.23,39.91,23.35,87,0
2129211,Misawa,JP,40.75,141.38,21.47,18,0
2594800,Idenao,CM,4.25,9,27.65,84,100
3946820,Barranca,PE,-10.75,-77.76,19.05,93,63
1486321,Yar-Sale,RU,66.83,70.83,1.85,80,3
2270385,Camacha,PT,33.08,-16.33,16.43,55,40
5978133,Hudson Bay,CA,52.86,-102.4,-2.05,87,65
546105,Nikolskoye,RU,59.7,30.79,4.03,86,0
2022773,Khandyga,RU,62.65,135.58,5.15,74,100
2092164,Lorengau,PG,-2.02,147.27,29.45,68,100
5859699,College,US,64.86,-147.8,7.09,42,90
2428231,Massaguet,TD,12.48,15.44,31,40,0
2015306,Tiksi,RU,71.64,128.87,-0.45,80,59
3372472,Vila Franca do Campo,PT,37.72,-25.43,13.88,82,75
554791,Izmaylovo,RU,53.72,47.24,12.15,80,3
3994911,Nocupetaro,MX,19.05,-101.15,24.15,39,100
1337605,Mahibadhoo,MV,3.78,72.97,29.45,71,10
4034551,Faanui,PF,-16.48,-151.75,27.85,78,16
1014034,Carnarvon,ZA,-30.97,22.13,13.45,39,14
2083537,Wewak,PG,-3.55,143.63,29.55,64,100
2314705,Kikwit,CD,-5.04,18.82,22.85,78,89
1814934,Jiangkou,CN,30.7,117.56,27.75,36,100
4014109,Choix,MX,26.71,-108.33,21.85,22,0
3443061,Chuy,UY,-33.69,-53.46,20.85,92,100
1865309,Katsuura,JP,33.93,134.5,21.1,72,75
2069194,Jamestown,AU,-33.21,138.6,17.65,44,0
1695555,Pandan,PH,11.72,122.09,29.65,72,26
1714733,Dingle,PH,11,122.67,35.65,38,16
2145554,Manyana,AU,-35.26,150.51,17.93,55,75
4031742,Egvekinot,RU,66.32,-179.17,-2.35,95,99
3372707,Ribeira Grande,PT,38.52,-28.7,15.55,66,4
286245,Sur,OM,22.57,59.53,32.95,11,0
303750,Tall Kayf,TR,37.08,41.07,7.9,93,0
3592086,Ocos,GT,14.51,-92.19,29,79,75
2013921,Ust-Kuyga,RU,70,135.55,0.25,97,0
2067119,Mandurah,AU,-32.55,115.7,20.63,68,90
3653967,Muisne,EC,0.61,-80.02,27.55,76,99
4372777,Vardo,US,39.62,-77.74,17.76,93,90
6148373,Sioux Lookout,CA,50.1,-91.92,5.61,56,40
2208248,Kaitangata,NZ,-46.28,169.85,11.67,74,99
3894426,Coihaique,CL,-45.58,-72.07,6.71,81,75
4035715,Avarua,CK,-21.21,-159.78,27,69,2
3174653,Lizzano,IT,40.39,17.45,14.22,93,75
5882953,Aklavik,CA,68.22,-135.01,-1,54,75
1314759,Lashio,MM,22.93,97.75,33.45,38,47
5961417,Husavik,CA,50.56,-96.99,5.52,45,80
2022317,Dormidontovka,RU,47.77,134.91,22.35,29,89
3465228,Coxim,BR,-18.5,-54.75,23.95,79,5
2983990,Rennes,FR,48.11,-1.68,3.1,100,0
2630299,Hofn,IS,64.25,-15.21,-1.55,86,34
6145890,Shelburne,CA,44.08,-80.2,7.43,93,90
1500933,Labytnangi,RU,66.66,66.39,-1.15,88,47
2514651,Los Llanos de Aridane,ES,28.66,-17.92,14.88,59,90
2169535,Dalby,AU,-27.18,151.26,20.29,48,0
8010472,Belmonte,PT,40.36,-7.35,7.78,90,0
2194098,Ahipara,NZ,-35.17,173.16,20,93,51
3031582,Saint-Augustin,FR,44.83,-0.61,2.63,86,0
2818067,Uetersen,DE,53.69,9.67,-0.64,76,0
2659977,Luan,CH,46.36,6.98,0.15,64,75
2146108,Traralgon,AU,-38.19,146.54,12.75,78,12
3868633,Vallenar,CL,-28.58,-70.76,15.95,78,0
2271968,Aljezur,PT,37.31,-8.8,13.5,91,0
517698,Novovyazniki,RU,56.2,42.16,8.85,87,100
146639,Lasa,CY,34.92,32.53,13.25,62,95
3388456,Sao Jose da Coroa Grande,BR,-8.9,-35.15,23.55,88,9
2122389,Ossora,RU,59.24,163.07,4.55,54,0
1507390,Dikson,RU,73.51,80.55,-8.45,78,45
4407665,Kodiak,US,39.95,-94.76,15.47,41,1
3013748,Hauterive,FR,46.09,3.45,1.73,96,90
3351380,Caconda,AO,-13.73,15.06,14.85,66,48
2235189,Bafoussam,CM,5.48,10.42,15.65,91,70
2022572,Khatanga,RU,71.98,102.47,-11.95,88,2
3109527,Santona,ES,43.44,-3.46,9.19,66,10
4273299,Hutchinson,US,38.06,-97.93,14.79,82,75
2028164,Deputatskiy,RU,69.3,139.9,-3.25,93,80
2121025,Srednekolymsk,RU,67.46,153.71,1.25,76,82
3839307,Rawson,AR,-43.3,-65.11,10.65,72,0
5710035,West Wendover,US,40.74,-114.07,22,18,1
1059507,Marovoay,MG,-16.11,46.64,23,94,20
1505579,Inta,RU,66.04,60.13,2.55,69,67
5983720,Iqaluit,CA,63.75,-68.52,-5.36,92,75
3576994,Cockburn Town,TC,21.46,-71.14,26.05,81,96
3671549,Puerto Asis,CO,0.51,-76.5,21.35,94,100
1801374,Babu,CN,23.23,104.89,26.35,53,100
6111862,Port Hardy,CA,50.7,-127.42,11,62,40
5030005,Hibbing,US,47.43,-92.94,5.43,75,90
1791464,Wenling,CN,28.38,121.38,25.55,32,86
537158,Laishevo,RU,55.4,49.55,12,71,0
2381334,Atar,MR,20.52,-13.05,25.75,18,0
3346015,Sumbe,AO,-11.2,13.84,25.45,90,38
787487,Poum,MK,41.28,20.71,10,87,90
4695361,Galle,US,29.74,-97.91,20.9,78,1
2702977,Dalvik,SE,57.79,14.13,-1.41,92,15
3868707,Valdivia,CL,-39.81,-73.25,13,100,75
779622,Havoysund,NO,71,24.66,-1,92,100
601294,Nukus,UZ,42.46,59.61,17,27,0
3419842,Sisimiut,GL,66.94,-53.67,5.35,57,15
1737486,Bintulu,MY,3.17,113.03,30,74,75
6144312,Sept-Iles,CA,50.2,-66.38,5.26,52,20
1786538,Yining,CN,29.04,114.56,23.35,63,100
2119626,Yagodnoye,RU,62.52,149.63,0.85,99,72
5520076,Del Rio,US,29.36,-100.9,23.32,73,1
745148,Poros,TR,40.9,26.22,16,82,20
4013704,Laguna,MX,27.52,-110.01,29,21,5
1507638,Chunoyar,RU,57.45,97.32,14.95,32,23
2160735,Lakes Entrance,AU,-37.88,147.99,16.23,71,13
1814093,Dali,CN,25.6,100.24,22.45,49,79
1510377,Belyy Yar,RU,53.6,91.39,10,29,0
6255012,Flinders,AU,-34.58,150.85,18.05,55,75
3691175,Trujillo,PE,-8.11,-79.03,21,83,90
2015179,Tommot,RU,58.97,126.27,5.45,58,44
2249901,Gat,SN,14.69,-16.54,19,93,0
1252578,Gasa,BT,27.91,89.73,1.85,87,83
4116834,Jonesboro,US,35.84,-90.7,16.19,93,90
2244322,Touba,SN,14.86,-15.88,21.65,56,0
2027968,Aldan,RU,58.61,125.39,3.95,73,100
3388847,Sao Felix do Xingu,BR,-6.64,-51.99,21.85,95,73
2064735,Nhulunbuy,AU,-12.18,136.78,24,94,90
1648082,Boyolangu,ID,-8.09,111.9,28.65,62,5
3418910,Upernavik,GL,72.79,-56.15,-2.55,89,0
1282256,Hithadhoo,MV,-0.6,73.08,28.75,74,28
4501427,Port Elizabeth,US,39.31,-74.98,16.22,100,90
1816234,Bozhou,CN,33.86,115.78,27.85,37,100
3374210,Sao Filipe,CV,14.9,-24.5,21.75,83,30
5341430,Daly City,US,37.71,-122.46,11.9,71,20
1217180,Kogon,UZ,39.73,64.54,18.17,55,0
2015352,Terney,RU,45.05,136.61,12.85,55,81
1511709,Alzamay,RU,55.55,98.67,16.45,21,0
3831208,Qaanaaq,GL,77.48,-69.36,-4.95,69,0
6138908,Saint-Philippe,CA,45.36,-73.48,9.64,100,75
3491161,Bull Savanna,JM,17.89,-77.59,27.15,72,100
6071421,Meadow Lake,CA,54.13,-108.44,0.65,70,95
2122293,Ozernovskiy,RU,51.5,156.52,3.95,76,60
2246550,Dagana,MR,16.52,-15.51,21.85,60,0
780687,Berlevag,NO,70.86,29.09,0.25,81,100
5960603,Geraldton,CA,49.72,-86.95,5,93,75
6179652,Weyburn,CA,49.67,-103.85,4.44,47,60
6167817,Torbay,CA,47.66,-52.73,4.56,80,90
1791121,Changde,CN,29.04,111.68,19.85,94,100
3855065,General Roca,AR,-39.03,-67.58,13,66,0
3197163,Kromberk,IT,45.96,13.67,9.35,93,97
183027,Nyahururu,KE,0.03,36.37,15.75,77,56
2018735,Nyurba,RU,63.29,118.35,5.85,75,100
5554428,Ketchikan,US,55.34,-131.65,10.67,62,90
5380437,Pacific Grove,US,36.62,-121.92,12.37,76,1
1688687,San Quintin,PH,17.54,120.52,33.15,45,87
2377450,Nouakchott,MR,18.08,-15.98,20,68,0
2015701,Taksimo,RU,56.36,114.84,4.75,52,89
2961459,Skibbereen,IE,51.55,-9.27,5,68,0
2122605,Okhotsk,RU,59.36,143.24,8.75,44,0
932183,Quthing,LS,-30.4,27.7,11.55,47,0
3652764,Puerto Ayora,EC,-0.74,-90.35,25.57,83,40
2022454,Khingansk,RU,49.12,131.18,6.55,77,100
2034599,Tailai,CN,46.39,123.41,11.25,16,90
5000947,Marquette,US,46.54,-87.4,10.9,70,1
1067565,Beloha,MG,-25.17,45.06,20.55,88,0
2335713,Matagami,NG,9.67,8.4,25.45,70,100
1670479,Xinzhi,TW,22.54,120.62,27.25,55,75
1606807,Sa Kaeo,TH,13.8,102.09,34.05,47,96
2729907,Longyearbyen,NO,78.22,15.63,-8,61,20
515873,Oktyabrskiy,RU,55.61,37.97,5.45,93,20
4011743,Constitucion,MX,23.99,-104.67,21.85,35,5
587876,Soe,EE,57.91,26.05,1.97,93,100
556268,Ostrovnoy,RU,68.05,39.51,-4.15,79,55
3421719,Narsaq,GL,60.91,-46.05,6.65,71,98
2656067,Broome,GB,52.47,1.45,4.61,81,65
3934608,Tucuman,PE,-17.17,-70.89,17.15,45,100
3662927,Santa Vitoria,BR,-7.82,-67.03,23.65,96,100
1636308,Manokwari,ID,-0.87,134.08,25.75,78,83
161974,Gazanjyk,TM,39.24,55.52,26.65,28,100
1633419,Padang,ID,-0.92,100.36,26,94,75
103630,Najran,SA,17.54,44.22,25,31,5
5536630,Cedar City,US,37.68,-113.06,15.76,27,1
3356832,Henties Bay,NA,-22.12,14.28,12.78,96,0
2737599,Saldanha,PT,41.42,-6.55,9.05,72,0
3698304,Chimbote,PE,-9.08,-78.59,19.35,94,61
1253628,Lata,IN,30.78,78.62,1.25,23,0
2208485,Zlitan,LY,32.47,14.57,16.65,71,0
3190586,Paka,HR,45.29,18.06,11.96,100,75
2155862,Nambour,AU,-26.63,152.96,22.64,57,0
2126785,Belaya Gora,RU,68.54,146.19,1.95,94,100
3395042,Mazagao,BR,-0.12,-51.29,27,100,75
2161515,Kiama,AU,-34.67,150.86,17.94,55,75
3661980,Tamandare,BR,-8.28,-70.75,24.75,76,26
1733782,Victoria,BN,5.28,115.24,30.83,66,75
2446796,Bilma,NE,18.69,12.92,26.75,12,0
3412093,Vestmannaeyjar,IS,63.44,-20.27,6.15,68,0
4931273,Brewster,US,41.76,-70.08,8.68,93,75
2966778,Ballina,IE,54.11,-9.15,1.13,99,5
2192362,Christchurch,NZ,-43.53,172.64,16.62,67,100
5261457,Madison,US,43.07,-89.38,12.74,62,1
2121385,Severo-Kurilsk,RU,50.68,156.12,1.65,91,97
3947322,La Libertad,PE,-16.38,-71.56,15,47,75
1489853,Tazovskiy,RU,67.47,78.7,2.15,98,100
3689325,Mutis,CO,6.23,-77.4,27.75,78,96
2455290,Kidal,ML,18.44,1.41,32.75,11,99
5354943,Half Moon Bay,US,37.46,-122.43,12.61,71,20
1486910,Komsomolskiy,RU,67.55,63.78,0.45,89,67
2513562,Bajil,ES,38.23,-2.07,8.25,93,0
2126199,Cherskiy,RU,68.75,161.3,-0.85,90,24
5881688,Fort Saint James,CA,54.43,-124.25,8.95,68,82
2063039,Port Keats,AU,-14.25,129.55,31.35,37,8
897456,Sinazongwe,ZM,-17.26,27.46,17.85,75,11
3128760,Barcelona,ES,41.38,2.18,10.68,82,75
2742416,Barcelos,PT,41.53,-8.62,11.62,87,0
3932145,Pisco,PE,-13.71,-76.2,21.01,73,75
5954718,Flin Flon,CA,54.77,-101.88,-1.35,87,100
3355672,Luderitz,NA,-26.65,15.16,11,87,0
3924679,Vilhena,BR,-12.74,-60.15,22.45,95,100
2178753,Kirakira,SB,-10.46,161.92,28.85,70,100
468866,Yartsevo,RU,55.07,32.69,7.75,88,100
3429732,Puerto Rico,PY,-26.82,-55.03,21.35,97,100
3924674,Xapuri,BR,-10.65,-68.5,23.45,93,28
2126710,Beringovskiy,RU,63.05,179.32,0.35,80,96
364071,Wad Rawah,SD,15.16,33.13,33.75,7,37
344420,Aksum,ET,14.12,38.72,19.95,30,33
3835994,Santa Rosa,AR,-36.62,-64.29,15.85,64,100
2013216,Vysokogornyy,RU,50.1,139.13,13.55,31,89
3437029,San Patricio,PY,-26.98,-56.83,23.45,81,79
2294915,Takoradi,GH,4.89,-1.75,24.95,92,100
1259385,Port Blair,IN,11.67,92.75,29,83,75
1632694,Pangkalanbuun,ID,-2.68,111.62,35.75,48,0
3939168,Huarmey,PE,-10.07,-78.15,19.55,93,36
1254046,Tura,IN,25.52,90.21,27.65,71,8
3031871,Veraval,FR,49.65,0.71,4.67,86,90
315498,Eregli,TR,37.51,34.05,12.15,40,56
2517679,Fortuna,ES,38.18,-1.13,13.87,82,0
695464,Male,UA,50.74,33.7,10.25,93,22
2173911,Broken Hill,AU,-31.97,141.45,15,58,0
560646,Golovino,RU,55.95,40.44,7.55,83,69
792680,Belgrade,RS,44.82,20.46,12,100,75
6322184,Porto Novo,BR,-23.68,-45.44,20,88,0
1106677,Bambous Virieux,MU,-20.34,57.76,23.4,94,40
1849876,Tateyama,JP,36.66,137.31,23.97,46,75
1717787,Catuday,PH,16.29,119.81,29.65,68,95
2125693,Evensk,RU,61.92,159.24,7.65,44,96
3162108,Ballangen,NO,68.34,16.83,-3.85,92,60
286621,Salalah,OM,17.01,54.1,28,83,75
2253354,Dakar,SN,14.69,-17.45,19,93,0
178443,Wajir,KE,1.75,40.07,24.65,83,56
1795632,Shenjiamen,CN,29.96,122.3,20.05,67,0
1650298,Bangkalan,ID,-7.05,112.74,30,70,20
3468100,Caldas Novas,BR,-17.75,-48.62,20.05,93,83
986717,Kruisfontein,ZA,-34,24.73,12.15,79,100
5656497,Havre,US,48.55,-109.68,3.89,75,90
2160063,Codrington,AU,-28.95,153.24,21.68,49,0
1848373,Fukue,JP,35.03,136.69,23.63,63,75
5983607,Inuvik,CA,68.36,-133.71,-1,54,75
4866371,Marshalltown,US,42.04,-92.91,13.85,58,40
2647074,Hereford,GB,52.06,-2.72,2.78,88,0
2312888,Mbanza-Ngungu,CD,-5.25,14.87,22.85,96,99
3141310,Rorvik,NO,64.86,11.24,0.56,95,100
509234,Pitkyaranta,RU,61.57,31.48,1.25,85,12
5530932,Jesus Carranza,MX,31.49,-106.24,24.98,7,40
5563397,Eureka,US,40.8,-124.16,9.78,93,90
72181,Marzuq,YE,14.4,46.47,23.25,21,40
3403344,Piranhas,BR,-9.61,-37.76,21.35,93,0
3985710,Cabo San Lucas,MX,22.89,-109.91,22.64,41,20
5225857,Aberdeen,US,45.47,-98.49,8.02,66,100
933535,Letlhakane,BW,-21.42,25.59,18.55,42,0
3394023,Natal,BR,-5.81,-35.21,24.49,83,20
1006984,East London,ZA,-33.02,27.91,13.25,91,6
1494091,Promyshlennaya,RU,54.92,85.64,13,35,0
535839,Leshukonskoye,RU,64.9,45.76,0.35,83,9
5367788,Lompoc,US,34.64,-120.46,12.57,87,1
4005143,Guaymas,MX,27.92,-110.9,24.66,54,5
3652462,San Cristobal,EC,-0.39,-78.55,12.37,87,40
4864337,Le Mars,US,42.79,-96.17,14.84,67,20
2038067,Chifeng,CN,42.27,118.96,7.95,24,0
1528998,Yumen,CN,40.29,97.04,14.55,58,96
2511174,Santa Cruz de Tenerife,ES,28.47,-16.25,16.16,76,90
2638664,Salisbury,GB,51.07,-1.8,2.47,93,0
107304,Buraydah,SA,26.33,43.97,23,56,0
2641434,Northam,GB,51.04,-4.21,1.54,66,0
2158744,Margate,AU,-43.03,147.26,13.6,58,75
2020838,Lensk,RU,60.71,114.91,4.75,83,100
2013918,Ust-Maya,RU,60.42,134.54,5.35,70,95
6320062,Vila Velha,BR,-3.71,-38.6,26.9,74,0
5746545,Portland,US,45.52,-122.67,19.77,37,90
2079582,Alyangula,AU,-13.85,136.42,29,62,90
3662761,Porto Walter,BR,-8.27,-72.74,24.55,77,71
2023333,Kachug,RU,53.96,105.89,13.25,18,51
2654675,Redcliffe,GB,51.45,-2.59,2.53,69,0
3372760,Praia da Vitoria,PT,38.73,-27.07,13.44,100,20
2995603,Saint-Pierre,FR,48.95,4.24,1.06,91,0
5887798,Assiniboia,CA,49.63,-105.99,4.85,40,98
2109528,Buala,SB,-8.15,159.59,28.85,73,100
2035754,Mingyue,CN,43.11,128.91,7.75,79,100
3694256,Olmos,PE,-5.99,-79.75,21.55,77,100
2037411,Fengcheng,CN,40.45,124.07,13.35,61,88
3573739,Esperance,TT,10.24,-61.45,25.55,78,40
3521972,Panaba,MX,21.28,-88.27,27.85,70,0
2180815,Tuatapere,NZ,-46.13,167.69,11.67,95,100
1524296,Esil,KZ,51.96,66.41,13.45,38,99
737021,Zonguldak,TR,41.25,31.83,15.55,72,99
4031574,Provideniya,RU,64.42,-173.23,-1.65,98,100
3420768,Qasigiannguit,GL,68.82,-51.19,12,37,73
1729564,Bacolod,PH,10.68,122.95,31.05,62,24
2610806,Vagur,FO,61.47,-6.81,7.35,72,81
3691954,Sechura,PE,-5.56,-80.82,21.55,87,16
463144,Zheshart,RU,62.09,49.59,3.75,55,49
2319133,Adeje,NG,5.68,5.76,27.15,87,98
3558771,Florida,CU,21.53,-78.23,22,88,75
3420846,Qaqortoq,GL,60.72,-46.03,6.65,71,98
2122090,Pevek,RU,69.7,170.27,-0.65,82,100
2136825,Isangel,VU,-19.55,169.27,29,62,75
5063646,Beatrice,US,40.27,-96.75,16.75,63,40
2027296,Aykhal,RU,65.95,111.51,-7,62,0
5528182,Pecos,US,31.42,-103.49,22.53,60,1
1861280,Itoman,JP,26.12,127.67,25.65,57,40
6068416,Mayo,CA,63.59,-135.9,7,26,75
6125862,Roblin,CA,51.23,-101.35,0.65,56,41
6620339,Karratha,AU,-20.74,116.85,33.55,10,7
2145554,Ulladulla,AU,-35.36,150.48,17.29,55,75
1337612,Dhidhdhoo,MV,6.88,73.1,29.15,62,7
2181625,Te Anau,NZ,-45.41,167.72,13.25,84,97
2059470,Victor Harbor,AU,-35.55,138.62,16.25,51,20
5969025,Haines Junction,CA,60.75,-137.51,4.15,53,70
5975004,High Level,CA,58.52,-117.13,4,32,75
6100069,Peace River,CA,56.23,-117.29,5,23,90
2460954,Araouane,ML,18.9,-3.53,29.15,18,21
4581833,Hilton Head Island,US,32.16,-80.75,23.84,94,20
2189343,Kaeo,NZ,-35.1,173.78,18.87,93,6
5942913,Dryden,CA,49.79,-92.84,6,45,20
2508813,Adrar,DZ,27.87,-0.29,23,27,0
2152659,Port Macquarie,AU,-31.43,152.91,20.53,48,0
3347019,Namibe,AO,-15.19,12.15,22.85,78,29
2160910,Kyabram,AU,-36.31,145.05,18.36,44,10
2644210,Liverpool,GB,53.41,-2.98,4.16,65,0
6696258,Campbellton,CA,48,-66.68,3.65,85,0
3515386,Tlapacoyan,MX,19.96,-97.21,21.45,84,100
1484943,Zverinogolovskoye,RU,54.46,64.85,14.95,50,0
3354071,Oranjemund,ZA,-28.55,16.43,14.95,88,32
204318,Wamba,CD,2.14,27.99,20.45,96,80
1214488,Meulaboh,ID,4.14,96.13,28.05,70,99
88319,Benghazi,LY,32.12,20.07,18.95,79,25
2374583,Bubaque,GW,11.28,-15.83,26.65,65,75
3491355,Black River,JM,18.03,-77.85,28,78,20
3465713,Conde,BR,-11.81,-37.61,20.85,94,7
3013922,Harfleur,FR,49.51,0.2,4.89,81,75
2394819,Cotonou,BJ,6.37,2.43,26,88,20
3899695,Ancud,CL,-41.87,-73.83,10,100,90
56166,Jilib,SO,0.49,42.79,24.55,96,69
2035707,Mujiayingzi,CN,42.12,118.78,7.35,27,0
3374083,Bathsheba,BB,13.22,-59.52,26,78,40
749747,Ayan,TR,40.67,33.6,6.65,85,100
464179,Zavetnoye,RU,47.12,43.89,12.65,80,100
5742974,North Bend,US,43.41,-124.22,10.94,87,75
1899102,Nagato,JP,34.35,131.14,21.99,72,0
5887916,Athabasca,CA,54.72,-113.29,1.55,39,100
3139597,Sistranda,NO,63.73,8.83,3.21,93,75
2017912,Plastun,RU,44.76,136.29,19.55,32,94
863061,Usinsk,RU,66,57.56,2.15,72,98
2339937,Auki,NG,12.18,6.51,31.75,43,100
3451124,Rio Negrinho,BR,-26.26,-49.52,22.78,97,73
3421319,Nuuk,GL,64.17,-51.74,6,56,40
2303611,Axim,GH,4.87,-2.24,26.65,83,100
3133895,Tromso,NO,69.65,18.96,-6.17,85,50
473263,Vizinga,RU,61.08,50.08,4.85,58,0
2269594,Cascais,PT,38.7,-9.42,13.83,55,0
5909514,Brooks,CA,50.57,-111.89,-0.57,95,100
3466041,Coaraci,BR,-14.64,-39.55,25,94,75
4595864,Simpsonville,US,34.74,-82.25,18.51,100,90
1580240,Hue,VN,16.47,107.58,37,44,20
1629380,Ruteng,ID,-8.61,120.46,32.35,56,0
6355222,Yulara,AU,-25.24,130.99,21,30,0
1337619,Ugoofaaru,MV,5.67,73,29.55,65,1
2281120,Tabou,CI,4.42,-7.36,23.95,96,100
1641899,Labuhan,ID,-2.54,115.51,33.25,49,40
4319518,Chalmette,US,29.94,-89.96,22.2,78,90
2790471,Hun,BE,50.34,4.87,1.99,93,40
2047258,Novyy Urgal,RU,51.07,132.56,5.75,77,100
3844421,Russell,AR,-33.01,-68.8,16,72,0
3653523,Palora,EC,-1.7,-77.97,16.15,67,100
5962582,Golden,CA,51.3,-116.96,2.95,81,82
3197710,Korcula,HR,42.96,17.14,12,81,90
5515743,Guymon,US,36.68,-101.48,16,87,1
3906209,Rurrenabaque,BO,-14.44,-67.53,21.45,90,95
3661944,Tefe,BR,-3.35,-64.71,23.65,95,100
1241622,Wattegama,LK,7.35,80.68,28.55,60,99
5391295,Salinas,US,36.67,-121.66,12.52,76,1
965528,Phalaborwa,ZA,-23.95,31.14,20,88,83
1623890,Lamu,ID,0.57,122.3,31.15,54,95
3467012,Carangola,BR,-20.73,-42.03,19.65,99,100
5380668,Palm Springs,US,33.82,-116.54,16.83,32,1
2027244,Bagdarin,RU,54.44,113.59,7.25,28,97
2162662,Inverell,AU,-29.78,151.11,17.96,45,0
3645532,Ciudad Bolivar,VE,8.12,-63.55,29.65,56,98
3427833,Tandil,AR,-37.33,-59.14,14.44,87,90
4033356,Tiarei,PF,-17.53,-149.33,30,58,20
236901,Ouadda,CF,8.07,22.4,23.95,62,69
2173323,Bundaberg,AU,-24.87,152.35,24.16,43,0
64814,Bandarbeyla,SO,9.49,50.81,25.85,82,0
1717512,Cabadiangan,PH,10.45,123.98,32,66,75
542184,Krasnovishersk,RU,60.4,57.08,8.35,69,0
3176927,Fiume Veneto,IT,45.93,12.73,9.95,93,75
2720382,Hede,SE,60.45,15.49,-0.25,82,66
6078372,Moose Factory,CA,51.26,-80.61,6,56,75
535734,Lesnoy,RU,59.78,52.13,7.15,52,69
3438834,Loreto,PY,-23.27,-57.32,24.25,84,1
5972762,Hay River,CA,60.82,-115.79,-1,63,40
1490796,Strezhevoy,RU,60.73,77.6,9,61,20
1861464,Tara,JP,33,130.15,24.76,60,75
3835869,Santiago del Estero,AR,-27.8,-64.26,20.55,87,1
1636022,Martapura,ID,-3.41,114.85,31,66,20
334700,Hirna,ET,9.22,41.1,14.55,92,77
3664659,Carauari,BR,-4.88,-66.9,23.65,96,100
779330,Kautokeino,NO,69.01,23.04,-6.55,90,100
1503796,Khandagayty,MN,50.73,92.07,8.55,21,31
2025256,Chumikan,RU,54.72,135.31,4.25,47,100
3573197,Hamilton,BM,32.3,-64.78,21.81,88,40
889191,Karoi,ZW,-16.82,29.68,16.05,76,0
301010,Seydisehir,TR,37.42,31.85,7.65,66,93
2206894,Hokitika,NZ,-42.72,170.96,16.55,80,91
3644417,Ejido,VE,8.55,-71.24,21.45,67,87
2669047,Timra,SE,62.49,17.33,0.13,80,100
2013465,Verkhoyansk,RU,67.55,133.39,5.45,40,9
1529484,Hami,CN,42.84,93.51,19.45,25,99
1712961,Gigmoto,PH,13.78,124.39,29.85,65,42
3402229,Chapadinha,BR,-3.74,-43.35,23.95,86,37
2139521,Noumea,NC,-22.28,166.46,27,57,75
5970873,Hare Bay,CA,48.86,-53.99,6.4,65,90
3603330,Amapa,HN,15.09,-87.97,27.87,83,75
1804578,Laizhou,CN,37.18,119.93,12.85,68,96
1835848,Seoul,KR,37.57,126.98,23.32,30,0
1785036,Zhangye,CN,38.94,100.46,12.95,55,100
3146487,Raudeberg,NO,61.99,5.14,3.08,80,100
2965649,Castleblayney,GB,54.12,-6.74,-1,86,1
3184935,Lezhe,AL,41.78,19.64,14,93,90
1831112,Kampot,KH,10.62,104.18,30.97,66,20
2077895,Alice Springs,AU,-23.7,133.88,19,34,0
567183,Danilov,RU,58.19,40.17,1,80,0
4272340,Great Bend,US,38.36,-98.78,15.37,82,75
5919850,Chapais,CA,49.78,-74.86,-1,68,1
287832,Ibra,OM,22.69,58.55,27.05,20,0
332746,Korem,ET,12.51,39.52,12.85,47,44
5699404,Scottsbluff,US,41.87,-103.67,14.86,31,1
57000,Hobyo,SO,5.35,48.53,28.05,80,44
1490624,Surgut,RU,61.25,73.4,9,87,90
2399371,Makokou,GA,0.56,12.85,22.15,98,100
1059051,Miandrivazo,MG,-19.53,45.46,21.25,74,0
3987500,San Buenaventura,MX,27.06,-101.55,22.22,93,3
115781,Shahr-e Babak,IR,30.12,55.12,18.55,36,0
7626384,Hovd,NO,63.83,10.7,1.99,93,75
2167426,Emerald,AU,-23.53,148.16,22.62,43,0
2635199,Ullapool,GB,57.9,-5.16,4.88,88,99
3397763,Jacareacanga,BR,-6.22,-57.76,24.55,83,75
951650,Stutterheim,ZA,-32.57,27.43,6.95,98,71
6324729,Halifax,CA,44.65,-63.58,5.35,100,90
2128975,Nemuro,JP,43.32,145.57,26,21,0
1337610,Thinadhoo,MV,0.53,72.93,28.85,74,59
3393692,Itarema,BR,-2.92,-39.92,24.55,94,43
1500399,Lokosovo,RU,61.13,74.84,9.35,86,60
5847411,Kahului,US,20.89,-156.47,20.09,88,90
494884,Shenkursk,RU,62.11,42.91,3.15,53,0
2618795,Klaksvik,FO,62.23,-6.59,6,75,94
6067472,Marystown,CA,47.17,-55.16,2.45,81,100
1273153,Deshnok,IN,27.8,73.34,36.05,8,0
3654533,LOS ALGARROBOS,EC,-3.25,-79.94,29.86,83,75
1862555,Hirado,JP,33.32,129.49,21.85,64,47
1269106,Jawhar,IN,19.91,73.23,28.35,65,1
3037899,Ambon,FR,47.55,-2.56,3.16,68,0
2123836,Lazarev,RU,52.23,141.51,0.95,86,99
2449893,Tessalit,ML,20.2,1.01,30.35,11,37
915285,Kalengwa,ZM,-13.47,25,16.25,80,2
2292542,Ayame,CI,5.61,-3.16,24.35,94,100
2017979,Petropavlovka,RU,50.61,105.32,9.25,17,0
1056899,Sambava,MG,-14.27,50.17,20.35,99,11
1621395,Wonosobo,ID,-7.36,109.9,30,70,20
1853371,Ryotsu,JP,38.08,138.43,18,59,0
3872255,San Felipe,CL,-32.75,-70.73,12.78,92,100
6096551,Pangnirtung,CA,66.15,-65.72,-2.85,71,87
463838,Zelenoborskiy,RU,66.84,32.36,-2.15,74,19
3123493,Ferrol,ES,43.48,-8.23,10.58,76,0
3899539,Antofagasta,CL,-23.65,-70.4,16,82,0
3135601,Olden,NO,61.84,6.81,0.35,95,99
2013258,Vrangel,RU,42.73,133.08,16.45,62,72
894701,Bulawayo,ZW,-20.16,28.59,15.75,55,0
3468789,Buritama,BR,-21.07,-50.14,23.05,89,100
1611195,Chiang Klang,TH,19.29,100.86,33,55,20
1634614,Nabire,ID,-3.36,135.5,25.35,91,100
2121909,Poronaysk,RU,49.22,143.1,11.35,54,77
1684803,Tabuk,PH,17.41,121.44,26.85,56,88
3354247,Ondangwa,NA,-17.91,15.98,19.55,36,0
5274867,Sturgeon Bay,US,44.83,-87.38,11.95,66,1
1001860,Giyani,ZA,-23.32,30.73,20.25,86,100
1728675,Balabac,PH,7.99,117.06,30.45,67,72
1528796,At-Bashi,KG,41.17,75.81,2.55,23,0
6539213,Pachino,IT,36.72,15.09,7.78,99,15
689198,Kyrylivka,UA,47.65,37.3,9.75,69,0
49747,Xuddur,SO,4.12,43.89,24.35,86,77
2264923,Peniche,PT,39.36,-9.38,13.16,55,0
590447,Karla,EE,59.37,24.93,1.16,75,20
1255364,Dumas,IN,21.09,72.71,28,74,20
1709347,Kanlagay,PH,5.88,121.29,31.25,58,40
6071618,Medicine Hat,CA,50.04,-110.68,0.15,87,90
5972291,Havre-Saint-Pierre,CA,50.23,-63.6,1,80,75
487498,Sterlibashevo,RU,53.44,55.26,12.55,77,100
3191648,Zlobin,HR,45.29,14.65,10.09,87,75
2132606,Samarai,PG,-10.62,150.67,28.05,69,71
3674735,Miraflores,CO,5.2,-73.14,12.05,97,92
3526662,Teya,MX,21.05,-89.07,28.6,78,75
2119447,Yuzhno-Kurilsk,RU,44.03,145.86,10.55,58,0
5888001,Atikokan,CA,48.76,-91.62,4.75,52,100
625144,Minsk,BY,53.9,27.56,6,100,75
3893629,Coquimbo,CL,-29.95,-71.34,15.93,93,0
3351024,Caluquembe,AO,-13.78,14.68,14.75,65,48
2036892,Hohhot,CN,40.81,111.65,11,32,0
2215163,Masallatah,LY,32.62,14,14.75,70,0
3530259,Copalillo,MX,18.03,-99.04,30,29,0
1804442,Lanxi,CN,29.21,119.46,25.85,36,99
3572906,Andros Town,BS,24.73,-77.79,25.78,83,20
4334720,Natchitoches,US,31.76,-93.09,18.77,93,1
1504382,Kargasok,RU,59.06,80.87,12.35,65,72
2119283,Zyryanka,RU,65.73,150.89,2.85,75,43
579432,Balezino,RU,57.97,53.01,11.65,76,44
1182665,Bhera,PK,32.48,72.91,30.55,17,0
917688,Chongwe,ZM,-15.33,28.68,16.35,92,13
1283240,Kathmandu,NP,27.71,85.32,23,73,20
3397851,Itupiranga,BR,-5.13,-49.33,26,94,20
2016307,Solnechnyy,RU,50.72,136.64,7.15,53,100
6065191,Altamont,CA,49.4,-98.5,4.9,36,1
2304548,Anloga,GH,5.79,0.9,26,94,20
1273265,Deoband,IN,29.69,77.68,29.95,13,0
711382,Brusyliv,UA,50.28,29.52,11.54,93,100
1317375,Kyaikto,MM,17.31,97.01,32.25,58,100
144448,Ahvaz,IR,31.32,48.68,22,64,0
932987,Tsabong,BW,-26.02,22.4,19.65,20,0
2170581,Coolum Beach,AU,-26.53,153.09,22.14,55,0
1631905,Payakumbuh,ID,-0.23,100.63,24.55,87,99
5595320,Hayden,US,47.77,-116.79,16.86,31,75
1630662,Praya,ID,-8.71,116.27,32,62,40
3516522,Soto la Marina,MX,23.77,-98.21,24.85,86,93
475469,Verkhnetulomskiy,RU,68.61,31.8,-1,80,75
4220862,Saint Simons,US,31.14,-81.39,24.49,83,1
3023557,Coron,FR,47.13,-0.65,2.28,90,0
5393052,Santa Cruz,US,36.97,-122.03,13.22,62,1
2460546,Banamba,ML,13.55,-7.45,34.05,12,100
496285,Severodvinsk,RU,64.56,39.82,1,74,0
3421982,Maniitsoq,GL,65.42,-52.9,6.45,58,97
1486298,Yashkino,RU,55.87,85.43,15,41,0
2989590,Ollioules,FR,43.14,5.85,7.94,42,0
4380848,Centralia,US,39.21,-92.14,12.51,81,1
3038305,Sagone,FR,42.12,8.7,15.05,67,26
1737185,Kapit,MY,2.02,112.94,34.55,52,15
2511930,Requena,ES,39.49,-1.1,11.79,81,0
3164565,Vila,IT,45.18,8.4,9.24,34,75
2512186,Puerto del Rosario,ES,28.5,-13.86,18.57,63,90
2156643,Mount Gambier,AU,-37.83,140.78,13,82,90
2032614,Baruun-Urt,MN,46.68,113.28,7.35,20,0
4632595,Jackson,US,35.61,-88.82,16.39,87,90
3452640,Porto Seguro,BR,-16.44,-39.06,24,88,40
2126682,Bilibino,RU,68.06,166.44,-3.35,87,1
6050066,La Ronge,CA,55.1,-105.3,-2,92,90
1496511,Novyy Urengoy,RU,66.08,76.63,2.35,99,99
6166142,Thunder Bay,CA,48.41,-89.26,8.91,62,90
2127202,Anadyr,RU,64.73,177.51,1.83,80,75
3665380,Alvaraes,BR,-3.22,-64.8,23.85,97,99
4174715,Tallahassee,US,30.44,-84.28,21.75,94,75
4004293,Ixtapa,MX,20.71,-105.21,24.66,83,20
4032369,Pangai,TO,-19.8,-174.35,26.55,79,0
286987,Nizwa,OM,22.93,57.53,26.25,16,0
2688250,Norrtalje,SE,59.76,18.7,0.07,92,0
3440777,Rocha,UY,-34.48,-54.34,18.75,97,100
1244926,Hambantota,LK,6.12,81.12,28,100,20
6173361,Vanderhoof,CA,54.02,-124.02,11.25,47,74
1957309,Panubigan,PH,7.13,122.25,30,70,20
3843123,Neuquen,AR,-38.95,-68.06,13,66,0
2179670,Wanganui,NZ,-39.93,175.05,19.22,50,50
3929607,San Jeronimo,PE,-13.65,-73.37,5.65,85,0
971421,Newcastle,ZA,-27.76,29.92,10.05,98,48
2156927,Moree,AU,-29.46,149.84,17.88,55,0
2454268,Koutiala,ML,12.39,-5.46,30.65,45,87
210379,Lusambo,CD,-4.97,23.44,20.95,95,63
3871336,Santiago,CL,-33.44,-70.65,12.87,87,0
455910,Salacgriva,LV,57.75,24.36,1.67,88,94
328716,Shakiso,ET,5.77,38.9,11.95,98,52
1718338,Carmen,PH,7.2,124.8,37.95,40,40
1337607,Kudahuvadhoo,MV,2.67,72.89,29.25,70,23
93709,Mandali,IQ,33.75,45.55,20.15,33,0
2396518,Port-Gentil,GA,-0.72,8.78,27.55,82,100
14177,Maku,IR,39.29,44.45,6,87,40
2277060,Gbarnga,LR,7,-9.47,22.25,97,97
368277,Rabak,SD,13.18,32.74,37.65,5,94
1540711,Muravlenko,RU,63.79,74.5,5.65,94,100
3136765,Stjordalshalsen,NO,63.47,10.93,1.08,100,75
1267390,Kavaratti,IN,10.57,72.64,30,66,40
3452712,Porto Murtinho,BR,-21.7,-57.88,25.25,76,0
380348,Abu Zabad,SD,12.35,29.25,29.85,9,79
2960970,Westport,IE,53.8,-9.52,1.04,87,0
2120591,Tilichiki,RU,60.47,166.1,5.85,46,0
789988,Mana,RS,43.52,20.24,9.9,100,75
60019,Eyl,SO,7.98,49.82,27.15,80,30
3665202,Aripuana,BR,-9.17,-60.63,23.95,93,87
4034438,Haapiti,PF,-17.57,-149.87,30,58,20
3655673,San Roque,EC,0.3,-78.23,14,87,40
2122493,Omsukchan,RU,62.53,155.8,-0.55,99,86
2015913,Suntar,RU,62.16,117.65,6.55,73,100
3933104,Pangoa,PE,-12.12,-73,22.05,74,0
3460197,Jaguaruna,BR,-28.62,-49.03,19.75,87,89
932416,Mokhotlong,LS,-29.29,29.06,4.95,48,1
2147714,Sydney,AU,-33.85,151.22,19.19,63,75
3408424,Ipixuna,BR,-1.76,-48.8,25,94,0
511794,Pechora,RU,65.12,57.16,2.65,68,4
245669,Adre,TD,13.47,22.2,28.15,9,59
3939761,Hualmay,PE,-11.1,-77.61,19.05,93,63
3687505,La Palma,CO,5.36,-74.39,20.75,93,100
2027456,Artyom,RU,43.36,132.19,15,67,75
934649,Cap Malheureux,MU,-19.98,57.61,23.54,94,40
753866,Zamosc,PL,50.72,23.25,4,100,75
484670,Taman,RU,45.22,36.72,7,100,0
2186111,Ngunguru,NZ,-35.62,174.5,17.78,79,14
3514843,Vega de Alatorre,MX,20.03,-96.65,25.65,78,100
3571913,Marsh Harbour,BS,26.54,-77.06,25.45,85,1
1214658,Lhokseumawe,ID,5.18,97.15,30.25,46,100
481548,Troitsko-Pechorsk,RU,62.71,56.19,5.35,63,0
3664956,Boca do Acre,BR,-8.76,-67.39,24.05,90,100
2781023,Deutschlandsberg,AT,46.81,15.21,7,87,75
1862505,Hirara,JP,24.8,125.28,25.52,61,40
2013727,Vanavara,RU,60.35,102.28,8.75,73,96
2158767,Mareeba,AU,-16.99,145.42,27.85,61,40
2962785,Lucan,IE,53.36,-6.45,0.66,91,20
1259395,Porbandar,IN,21.64,69.61,27,83,20
3346821,Ondjiva,AO,-17.07,15.73,17.25,44,0
3448455,Sao Miguel do Araguaia,BR,-13.28,-50.16,24.35,78,89
1623197,Tual,ID,-5.67,132.75,27.05,84,100
1563281,Tuy Hoa,VN,13.08,109.3,36.15,39,41
2289049,Ferkessedougou,CI,9.6,-5.2,24.25,87,100
4019042,Ajuchitlan,MX,20.72,-100.02,24,23,75
876177,Luau,CD,-10.7,22.23,21.65,65,96
3416888,Grindavik,IS,63.84,-22.43,3.39,69,40
247659,Qafqafa,JO,32.35,35.94,11.32,76,23
509483,Pinega,RU,64.7,43.39,0.45,81,1
924703,Chanika,MW,-12.93,34.19,16.55,96,10
2062276,Roebourne,AU,-20.77,117.15,33.25,10,8
1519422,Semey,KZ,50.41,80.25,13,32,0
2087894,Rabaul,PG,-4.2,152.17,28.55,79,100
110690,Faya,SA,18.39,42.45,19.52,37,5
1045114,Inhambane,MZ,-23.87,35.38,18.35,95,0
5920288,Charlottetown,CA,46.23,-63.13,4.63,100,90
1710518,Isabela,PH,10.2,122.99,29.65,67,49
145531,Saurimo,AO,-9.66,20.4,19.25,75,47
2447416,Ayorou,NE,14.73,0.92,34.25,16,42
1525376,Bestobe,KZ,52.5,73.1,14.25,36,100
5386035,Rancho Palos Verdes,US,33.75,-118.37,16.59,72,1
3451138,Rio Grande,BR,-32.03,-52.1,22.35,95,100
2644487,Lincoln,GB,53.23,-0.54,3.68,86,0
5208292,Arroyo,US,41.39,-78.88,12.99,87,90
1806466,Guangyuan,CN,32.43,105.86,18.89,88,100
1090415,Chirongui,YT,-12.93,45.15,28,83,40
662095,Aanekoski,FI,62.6,25.73,-1.07,92,75
3933185,Pampas,PE,-12.4,-74.87,2.25,96,5
2067089,Maningrida,AU,-12.05,134.23,31.35,58,14
3421193,Paamiut,GL,61.99,-49.67,3.15,76,100
2278158,Buchanan,LR,5.88,-10.05,24,94,40
1795424,Huilong,CN,28.89,110.18,16.65,95,100
585400,Naftalan,AZ,40.5,46.82,12,87,40
1274553,Baghmara,IN,23.8,86.21,32.05,43,0
3530097,Champerico,MX,16.38,-93.6,30,51,75
712349,Berezyne,UA,46.23,29.2,12.35,74,100
933787,Dutlwe,BW,-23.98,23.93,16.75,33,0
3430443,Necochea,AR,-38.55,-58.74,13.5,82,100
124274,Mehriz,IR,31.58,54.44,18,39,20
2377457,Nouadhibou,MR,20.93,-17.03,18,72,0
2094027,Kieta,PG,-6.22,155.63,29.95,65,98
2082539,Merauke,ID,-8.49,140.4,27.95,78,100
1648266,Bondowoso,ID,-7.91,113.82,25.95,64,87
625721,Lyuban,BY,52.8,28,8.05,90,100
2614565,Ronde,DK,56.3,10.48,0.81,90,0
239899,Bria,CF,6.54,21.99,25.55,58,76
3456285,Niquelandia,BR,-14.47,-48.46,21.35,84,0
134721,Fasa,IR,28.94,53.65,12,71,0
4033557,Tautira,PF,-17.73,-149.15,30,58,20
5906757,Bow Island,CA,49.87,-111.38,0.14,88,90
580420,Atkarsk,RU,51.88,45.01,12.85,78,0
1082243,Ambilobe,MG,-13.19,49.05,24.45,74,0
1516589,Zhezkazgan,KZ,47.8,67.71,9,49,0
2427336,Moussoro,TD,13.64,16.49,33.05,8,90
3938531,Iberia,PE,-11.41,-69.49,24.25,86,43
2057087,Bone,ID,-10.32,123.57,28,65,75
212730,Kisangani,CD,0.52,25.21,21.35,97,62
2071059,Gawler,AU,-34.6,138.75,17.07,51,20
2112444,Kamaishi,JP,39.28,141.86,22,35,0
546521,Kolchugino,RU,56.3,39.38,5.75,81,11
463355,Zheleznodorozhnyy,RU,55.75,38,5.43,93,20
3126899,Cambados,ES,42.51,-8.81,10.13,76,0
2027740,Amurzet,CN,47.69,131.09,9.55,61,100
2450173,Taoudenni,ML,22.68,-3.98,27.55,12,0
153955,Micheweni,TZ,-4.97,39.83,27.35,82,54
1258338,Ratnagiri,IN,16.98,73.3,27.75,71,49
2223763,Nkongsamba,CM,4.95,9.94,18.65,89,79
1494482,Polunochnoye,RU,60.87,60.43,10.15,56,0
3448350,Pombas,BR,-15.9,-54.74,22.85,83,61
3674292,Mosquera,CO,4.71,-74.23,14,76,90
2027044,Batagay,RU,67.65,134.64,6.15,35,7
2597250,Solenzo,BF,12.18,-4.08,26.75,62,83
886763,Masvingo,ZW,-20.08,30.83,16.35,63,0
1736309,Alor Setar,MY,6.12,100.37,28,88,75
1035025,Nacala,MZ,-14.56,40.69,21.55,98,21
5855051,Ewa Beach,US,21.32,-158.01,21.38,88,75
218680,Boende,CD,-0.28,20.88,22.35,89,37
1337613,Kulhudhuffushi,MV,6.62,73.07,29.05,64,59
6945991,Plessisville,CA,46.22,-71.77,7.21,61,5
2347470,Miri,NG,10.31,9.75,28.55,52,84
3833883,Trelew,AR,-43.25,-65.31,10.65,72,0
2509650,Vicar,ES,36.83,-2.64,12.68,93,0
3130131,Amposta,ES,40.71,0.58,12.88,50,0
1626493,Srandakan,ID,-7.94,110.25,28.45,74,6
1568770,Quang Ngai,VN,15.12,108.8,40.75,27,88
1178338,Gilgit,PK,35.92,74.31,-1.65,31,0
1497376,Nizhnyaya Tavda,RU,57.67,66.17,12.85,74,0
1151464,Phangnga,TH,8.45,98.53,31,62,40
1524606,Derzhavinsk,KZ,51.1,66.31,13.85,35,82
2361477,Dedougou,BF,12.47,-3.47,29.05,54,81
933077,Shakawe,BW,-18.36,21.84,16.45,55,0
359173,Beni Suef,EG,29.07,31.1,19.95,40,0
3663142,Novo Aripuana,BR,-5.12,-60.38,23.85,97,63
2016216,Sosnovo-Ozerskoye,RU,52.53,111.54,9.15,25,96
2180737,Turangi,NZ,-39,175.93,15.85,59,16
1630789,Pontianak,ID,-0.02,109.34,31,70,75
86049,Jalu,LY,29.03,21.55,29.05,19,71
3639898,Guatire,VE,10.47,-66.54,22.35,78,40
3685794,Corrales,CO,5.83,-72.84,8.15,98,100
232713,Kajansi,UG,0.21,32.52,24.55,72,100
3460954,Praia,BR,-20.25,-43.81,21,83,0
3114531,Palencia,ES,42.01,-4.53,5.45,81,0
2409663,Daru,SL,7.99,-10.85,25.45,86,100
2122104,Petropavlovsk-Kamchatskiy,RU,53.05,158.65,7,48,40
2638419,Scarborough,GB,54.28,-0.41,4.32,86,22
568608,Chernushka,RU,56.5,56.08,11.55,84,91
2399001,Mayumba,GA,-3.44,10.65,26.75,90,100
2016443,Skovorodino,RU,53.99,123.94,9.25,23,12
2969963,Ornes,FR,49.25,5.47,0.46,100,0
2123979,Kurilsk,RU,45.23,147.88,3.75,85,6
1863495,Gushikawa,JP,26.35,127.87,25.65,65,75
5287262,Buckeye,US,33.37,-112.58,29.83,13,1
6162949,Terrace,CA,54.52,-128.61,13,64,75
3533462,Acapulco,MX,16.86,-99.88,26,83,75
1816336,Binzhou,CN,37.38,117.96,23.89,38,76
580182,Aykino,RU,62.22,49.99,3.75,55,49
1215957,Termez,AF,37.23,67.28,21,49,0
779683,Hammerfest,NO,70.66,23.68,-1,92,100
214974,Kalemie,CD,-5.95,29.2,18.65,95,69
2398283,Mitzic,GA,0.78,11.55,21.85,98,100
2362150,Boromo,BF,11.74,-2.93,29.45,56,100
2126638,Bogorodskoye,RU,52.37,140.44,5.65,57,100
2136697,Lakatoro,VU,-16.11,167.42,28.45,70,29
1485997,Yeniseysk,RU,58.45,92.17,12.05,53,84
2084442,Vanimo,PG,-2.67,141.3,29.15,65,100
5712169,Baker City,US,44.77,-117.83,17.88,32,1
1529195,Shihezi,CN,44.3,86.03,13.85,37,100
3174050,Mantua,IT,45.16,10.79,9.35,87,75
6050194,La Sarre,CA,48.8,-79.2,4.45,67,0
338345,Edd,ER,13.93,41.69,30.15,25,26
4736096,Texarkana,US,33.44,-94.04,18.58,93,20
3461425,Ilhabela,BR,-23.78,-45.36,25.45,83,84
2026160,Borogontsy,RU,62.67,131.17,7.95,31,90
3347939,Lobito,AO,-12.35,13.55,24.15,82,48
878549,Zvishavane,ZW,-20.32,30.05,15.15,66,0
7626291,La Rinconada,PE,-14.63,-69.45,-0.75,84,2
1255619,Srivardhan,IN,18.03,73.02,27.05,74,98
1640902,Kawalu,ID,-7.38,108.21,27.95,64,2
161616,Balkanabat,TM,39.51,54.36,24.25,49,100
2323349,Boma,NG,11.23,4.46,32.15,53,100
470905,Vuktyl,RU,63.86,57.31,3.85,66,0
1651461,Amuntai,ID,-2.42,115.25,35.45,49,5
364933,Umm Kaddadah,SD,13.6,26.69,27.65,12,55
1817240,Baiyin,CN,36.55,104.13,11,93,90
3394605,Monte Alegre,BR,-2,-54.07,24.85,83,75
3837213,Rivadavia,AR,-31.53,-68.59,12.85,55,50
3836277,Santa Fe,AR,-31.62,-60.7,21.67,93,5
868355,Kochubey,RU,44.39,46.54,14.75,74,100
2063042,Port Hedland,AU,-20.31,118.58,32,11,12
538138,Kuvandyk,RU,51.48,57.35,14.05,56,98
1651103,Atambua,ID,-9.11,124.89,29.45,64,1
2012593,Zeya,RU,53.74,127.27,6.75,21,0
1850144,Nishihara,JP,35.74,139.53,23.38,68,75
610612,Aktau,KZ,43.65,51.16,15,87,40
4984075,Alpena,US,45.06,-83.43,5.51,61,1
1489828,Teeli,RU,51.01,90.2,8.15,34,0
1635111,Puri,ID,-7.54,112.45,30,70,20
1816751,Beidao,CN,34.57,105.89,12.95,84,100
352733,Marsa Matruh,EG,31.35,27.25,16,87,0
5767918,Pierre,US,44.37,-100.35,13.03,55,20
2020584,Magistralnyy,RU,56.17,107.45,10.35,36,100
88533,Awjilah,LY,29.14,21.3,28.45,18,75
5895424,Bay Roberts,CA,47.58,-53.28,4.56,84,90
1806687,Yongan,CN,39.7,113.69,12.65,29,100
3517970,Pochutla,MX,15.74,-96.47,27.76,69,5
2789193,Pepingen,BE,50.76,4.16,3.52,93,65
5989045,Kamloops,CA,50.68,-120.34,14.08,72,75
2654332,Buncrana,GB,55.14,-7.45,7.95,63,97
2127060,Arman,RU,59.7,150.17,7.75,49,93
3928128,Tacna,PE,-18.01,-70.25,16.11,77,0
2172880,Byron Bay,AU,-28.65,153.62,22.27,43,0
1242110,Kalmunai,LK,7.42,81.82,28.85,70,100
5992836,Kirkland Lake,CA,48.15,-80.03,9,57,1
637959,Salo,FI,60.38,23.13,-2.55,82,0
749704,Carsamba,TR,41.2,36.72,8.92,93,0
2206890,Masterton,NZ,-40.95,175.66,18.65,60,62
